[
{
"name": "Anzac Square",
"address": "W1 Lower Ground Floor, 200 Adelaide Street, Brisbane, QLD 4000",
"latitude": -27.466889,
"longitude": 153.026662,
"type": "atm"
},
{
"name": "Queens Plaza",
"address": "Food Court, Lower Ground Floor, 226 Queen Street, Brisbane, QLD 4000",
"latitude": -27.468228,
"longitude": 153.026005,
"type": "atm"
},
{
"name": "Tattersalls Mall",
"address": "223 Queen Street, Brisbane, QLD 4000",
"latitude": -27.468923,
"longitude": 153.024785,
"type": "branch"
},
{
"name": "Brisbane Queen Street",
"address": "Cnr Queen St & Edwards St, Brisbane, QLD 4000",
"latitude": -27.468664,
"longitude": 153.026965,
"type": "branch"
},
{
"name": "Post Office Square",
"address" : "Food Court, 270-280 Queen St, Brisbane, QLD 4000",
"latitude": -27.467296,
"longitude": 153.027427,
"type": "atm"
},
{
"name": " Sample ATM",
"address": "W1 Lower Ground Floor, 200 Adelaide Street, Brisbane, QLD 4000",
"latitude": -27.575546,
"longitude": 153.025315,
"type": "atm" 
},
{"name": "Sample ATM","address": "W1 Lower Ground Floor, 200 Adelaide Street, Brisbane, QLD 4000","latitude": -19.297649,"longitude": 146.765053,"type": "atm" },
{"name": "Sample ATM","address": "W1 Lower Ground Floor, 200 Adelaide Street, Brisbane, QLD 4000","latitude": -27.345715,"longitude": 152.969499,"type": "atm" },
{"name": "Sample ATM","address": "W1 Lower Ground Floor, 200 Adelaide Street, Brisbane, QLD 4000","latitude": -27.510584,"longitude": 153.03243,"type": "atm" },
{"name": "Sample ATM","address": "W1 Lower Ground Floor, 200 Adelaide Street, Brisbane, QLD 4000","latitude": -27.397406,"longitude": 152.959486,"type": "atm" },
{"name": "Sample ATM","address": "W1 Lower Ground Floor, 200 Adelaide Street, Brisbane, QLD 4000","latitude": -27.945462,"longitude": 153.3557,"type": "atm" },
{"name": "Sample ATM","address": "W1 Lower Ground Floor, 200 Adelaide Street, Brisbane, QLD 4000","latitude": -27.445429,"longitude": 152.993931,"type": "atm" },
{"name": "Sample ATM","address": "W1 Lower Ground Floor, 200 Adelaide Street, Brisbane, QLD 4000","latitude": -27.976741,"longitude": 153.380963,"type": "atm" },
{"name": "Sample ATM","address": "W1 Lower Ground Floor, 200 Adelaide Street, Brisbane, QLD 4000","latitude": -27.362074,"longitude": 153.017054,"type": "atm" },
{"name": "Sample ATM","address": "W1 Lower Ground Floor, 200 Adelaide Street, Brisbane, QLD 4000","latitude": -17.27282,"longitude": 145.473369,"type": "atm" },
{"name": "Sample ATM","address": "W1 Lower Ground Floor, 200 Adelaide Street, Brisbane, QLD 4000","latitude": -19.573579,"longitude": 147.405718,"type": "atm" },
{"name": "Sample ATM","address": "W1 Lower Ground Floor, 200 Adelaide Street, Brisbane, QLD 4000","latitude": -28.870854,"longitude": 153.561335,"type": "atm" },
{"name": "Sample ATM","address": "W1 Lower Ground Floor, 200 Adelaide Street, Brisbane, QLD 4000","latitude": -27.988071,"longitude": 152.995927,"type": "atm" },
{"name": "Sample ATM","address": "W1 Lower Ground Floor, 200 Adelaide Street, Brisbane, QLD 4000","latitude": -27.715576,"longitude": 153.202043,"type": "atm" },
{"name": "Sample ATM","address": "W1 Lower Ground Floor, 200 Adelaide Street, Brisbane, QLD 4000","latitude": -26.856737,"longitude": 152.956639,"type": "atm" },
{"name": "Sample ATM","address": "W1 Lower Ground Floor, 200 Adelaide Street, Brisbane, QLD 4000","latitude": -24.395866,"longitude": 150.507357,"type": "atm" },
{"name": "Sample ATM","address": "W1 Lower Ground Floor, 200 Adelaide Street, Brisbane, QLD 4000","latitude": -27.614052,"longitude": 152.790721,"type": "atm" },
{"name": "Sample ATM","address": "W1 Lower Ground Floor, 200 Adelaide Street, Brisbane, QLD 4000","latitude": -20.008167,"longitude": 148.243664,"type": "atm" },
{"name": "Sample ATM","address": "W1 Lower Ground Floor, 200 Adelaide Street, Brisbane, QLD 4000","latitude": -27.064591,"longitude": 153.155032,"type": "atm" },
{"name": "Sample ATM","address": "W1 Lower Ground Floor, 200 Adelaide Street, Brisbane, QLD 4000","latitude": -27.469801,"longitude": 153.024959,"type": "atm" },
{"name": "Sample ATM","address": "W1 Lower Ground Floor, 200 Adelaide Street, Brisbane, QLD 4000","latitude": -27.467658,"longitude": 153.027764,"type": "atm" },
{"name": "Sample ATM","address": "W1 Lower Ground Floor, 200 Adelaide Street, Brisbane, QLD 4000","latitude": -27.465831,"longitude": 153.030148,"type": "atm" },
{"name": "Sample ATM","address": "W1 Lower Ground Floor, 200 Adelaide Street, Brisbane, QLD 4000","latitude": -27.470944,"longitude": 153.023536,"type": "atm" },
{"name": "Sample ATM","address": "W1 Lower Ground Floor, 200 Adelaide Street, Brisbane, QLD 4000","latitude": -28.029193,"longitude": 153.431802,"type": "atm" },
{"name": "Sample ATM","address": "W1 Lower Ground Floor, 200 Adelaide Street, Brisbane, QLD 4000","latitude": -28.035098,"longitude": 153.424833,"type": "atm" },
{"name": "Sample ATM","address": "W1 Lower Ground Floor, 200 Adelaide Street, Brisbane, QLD 4000","latitude": -27.660914,"longitude": 153.041316,"type": "atm" },
{"name": "Sample ATM","address": "W1 Lower Ground Floor, 200 Adelaide Street, Brisbane, QLD 4000","latitude": -27.660848,"longitude": 153.041336,"type": "atm" },
{"name": "Sample ATM","address": "W1 Lower Ground Floor, 200 Adelaide Street, Brisbane, QLD 4000","latitude": -26.700369,"longitude": 153.123575,"type": "atm" },
{"name": "Sample ATM","address": "W1 Lower Ground Floor, 200 Adelaide Street, Brisbane, QLD 4000","latitude": -26.687399,"longitude": 153.048866,"type": "atm" },
{"name": "Sample ATM","address": "W1 Lower Ground Floor, 200 Adelaide Street, Brisbane, QLD 4000","latitude": -24.865475,"longitude": 152.351457,"type": "atm" },
{"name": "Sample ATM","address": "W1 Lower Ground Floor, 200 Adelaide Street, Brisbane, QLD 4000","latitude": -24.886958,"longitude": 152.319018,"type": "atm" },
{"name": "Sample ATM","address": "W1 Lower Ground Floor, 200 Adelaide Street, Brisbane, QLD 4000","latitude": -28.005086,"longitude": 153.41311,"type": "atm" },
{"name": "Sample ATM","address": "W1 Lower Ground Floor, 200 Adelaide Street, Brisbane, QLD 4000","latitude": -28.089137,"longitude": 153.450289,"type": "atm" },
{"name": "Sample ATM","address": "W1 Lower Ground Floor, 200 Adelaide Street, Brisbane, QLD 4000","latitude": -28.10017,"longitude": 153.423451,"type": "atm" },
{"name": "Sample ATM","address": "W1 Lower Ground Floor, 200 Adelaide Street, Brisbane, QLD 4000","latitude": -28.644593,"longitude": 153.612636,"type": "atm" },
{"name": "Sample ATM","address": "W1 Lower Ground Floor, 200 Adelaide Street, Brisbane, QLD 4000","latitude": -16.923031,"longitude": 145.776455,"type": "atm" },
{"name": "Sample ATM","address": "W1 Lower Ground Floor, 200 Adelaide Street, Brisbane, QLD 4000","latitude": -16.923504,"longitude": 145.771982,"type": "atm" },
{"name": "Sample ATM","address": "W1 Lower Ground Floor, 200 Adelaide Street, Brisbane, QLD 4000","latitude": -27.611202,"longitude": 153.0513,"type": "atm" },
{"name": "Sample ATM","address": "W1 Lower Ground Floor, 200 Adelaide Street, Brisbane, QLD 4000","latitude": -26.804755,"longitude": 153.133544,"type": "atm" },
{"name": "Sample ATM","address": "W1 Lower Ground Floor, 200 Adelaide Street, Brisbane, QLD 4000","latitude": -20.281464,"longitude": 148.690481,"type": "atm" },
{"name": "Sample ATM","address": "W1 Lower Ground Floor, 200 Adelaide Street, Brisbane, QLD 4000","latitude": -27.520511,"longitude": 153.191099,"type": "atm" },
{"name": "Sample ATM","address": "W1 Lower Ground Floor, 200 Adelaide Street, Brisbane, QLD 4000","latitude": -27.50034,"longitude": 153.100577,"type": "atm" },
{"name": "Sample ATM","address": "W1 Lower Ground Floor, 200 Adelaide Street, Brisbane, QLD 4000","latitude": -28.85977,"longitude": 153.049089,"type": "atm" },
{"name": "Sample ATM","address": "W1 Lower Ground Floor, 200 Adelaide Street, Brisbane, QLD 4000","latitude": -20.076847,"longitude": 146.262387,"type": "atm" },
{"name": "Sample ATM","address": "W1 Lower Ground Floor, 200 Adelaide Street, Brisbane, QLD 4000","latitude": -27.382131,"longitude": 153.032499,"type": "atm" },
{"name": "Sample ATM","address": "W1 Lower Ground Floor, 200 Adelaide Street, Brisbane, QLD 4000","latitude": -26.736741,"longitude": 150.626608,"type": "atm" },
{"name": "Sample ATM","address": "W1 Lower Ground Floor, 200 Adelaide Street, Brisbane, QLD 4000","latitude": -27.525912,"longitude": 153.267156,"type": "atm" },
{"name": "Sample ATM","address": "W1 Lower Ground Floor, 200 Adelaide Street, Brisbane, QLD 4000","latitude": -20.705469,"longitude": 140.509268,"type": "atm" },
{"name": "Sample ATM","address": "W1 Lower Ground Floor, 200 Adelaide Street, Brisbane, QLD 4000","latitude": -28.16818,"longitude": 153.535603,"type": "atm" }
]